[
    {
        "id": "morningside-nature-preserve", 
        "name": "Morningside Nature Preserve", 
        "snippet": "30 acres of conserved forest northeast of Piedmont Park.",
        "lat":"33.806814",
        "long":"-84.356228",
        "distance":"",
        "tags": [
            "trails",
            "water"
        ]
    }, 
    {
        "id": "piedmont-park", 
        "name": "Piedmont Park", 
        "snippet": "Piedmont is Atlanta’s most well known park. 189 acres rich in history and lots of amenities.",
        "lat":"33.786526",
        "long":"-84.373707",
        "distance":"",
        "tags": [
            "dogs",
            "trails",
            "baseball",
            "basketball",
            "tennis",
            "water",
            "pool",
            "playground",
            "grills",
            "splashpad"
        ]
    },
    {
        "id": "central-park", 
        "name": "Central Park", 
        "snippet": "17 acre park in Old Fourth Ward featuring a variety of athletic and multi-purpose fields/courts.",
        "lat":"33.768815",
        "long":"-84.376303",
        "distance":"",
        "tags": [
            "football",
            "baseball",
            "playground"
        ]
    },
    {
        "id": "renaissance-park", 
        "name": "Renaissance Park", 
        "snippet": "5 acre park in Old Fourth Ward with walking paths and a dog park.",
        "lat":"33.768048",
        "long":"-84.380949",
        "distance":"",
        "tags": [
            "dogs"
        ]
    },
    {
        "id": "constitution-lakes", 
        "name": "Constitution Lakes", 
        "snippet": "Constitution Lakes is a 125 acre wetlands nature preserve in south east Atlanta, with trails, boardwalks, and repurposed art.",
        "lat":"33.681593",
        "long":"-84.340215",
        "distance":"",
        "tags": [
            "trails",
            "water",
            "fishing"
        ]
    },
    {
        "id": "cheshire-farm-trail", 
        "name": "Cheshire Farm Trail", 
        "snippet": "A short trail that snakes alongside North Fork Peachtree Creek and underneath I-85.",
        "lat":"33.821197",
        "long":"-84.358467",
        "distance":"",
        "tags": [
            "trails"
        ]
    },
    {
        "id": "oakland-cemetery", 
        "name": "Oakland Cemetery", 
        "snippet": "Atlanta's iconic cemetery serves as the resting place for numerous famous Atlantans including Bobby Jones, Margaret Mitchell, and Maynard Jackson.",
        "lat":"33.748459",
        "long":"-84.372466",
        "distance":"",
        "tags": [
            "cemetery"
        ]
    },
    {
        "id": "cascade-springs-nature-preserve", 
        "name": "Cascade Springs Nature Preserve", 
        "snippet": "120 acre nature preserve in southwest Atlanta featuring trails and a waterfall.",
        "lat":"33.716934",
        "long":"-84.478912",
        "distance":"",
        "tags": [
            "trails"
        ]
    },
    {
        "id": "tech-green", 
        "name": "Tech Green", 
        "snippet": "Central greenspace on Georgia Tech Campus",
        "lat":"33.774615",
        "long":"-84.397334",
        "distance":"",
        "tags":[]
    },
    {
        "id": "couch-park", 
        "name": "Couch Park (Burger Bowl)", 
        "snippet": "A small park on west side of Georgia Tech's campus primarily used as a multi-purpose field by Tech students.",
        "lat":"33.778532",
        "long":"-84.40291",
        "distance":"",
        "tags":[]
    },
    {
        "id": "orme-park", 
        "name": "Orme Park", 
        "snippet": "A small community park with a playground and walking paths.",
        "lat":"33.785648",
        "long":"-84.361742",
        "distance":"",
        "tags": [
            "playground"
        ]
    },
    {
        "id": "winn-park", 
        "name": "Winn Park", 
        "snippet": " A medium sized park in Ansley Park neighborhood featuring a playground and multi-purpose field with a backstop.",
        "lat":"33.7905886",
        "long":"-84.3817877",
        "distance":"",
        "tags": [
            "playground"
        ]
    },
    {
        "id": "historic-fourth-ward", 
        "name": "Historic Fourth Ward Park", 
        "snippet": "17 acre park in Old Fourth Ward behind of Ponce City Market",
        "lat":"33.7681821",
        "long":"-84.3645818",
        "distance":"",
        "tags": [
            "playground",
            "splashpad"
        ]
    },
    {
        "id": "centennial", 
        "name": "Centennial Olympic Park", 
        "snippet": "Large Olympic park in downtown Atlanta surrounded by popular Atlanta attractions.",
        "lat":"33.7607711",
        "long":"-84.3950662",
        "distance":"",
        "tags": [
            "playground",
            "splashpad"
        ]
    },
    {
        "id": "freedom-park", 
        "name": "Freedom Park", 
        "snippet": "A large sprawling park that stretches from Candler Park to downtown.",
        "lat":"33.7699149",
        "long":"-84.3553441",
        "distance":"",
        "tags": [
            "playground",
            "biking"
        ]
    },
    {
        "id": "lullwater-creek", 
        "name": "Lullwater Creek Park", 
        "snippet": "154 acre preserve on Emory’s campus. Includes a number of trails that weave throughout the forest around Candler Lake.",
        "lat":"33.797092",
        "long":"-84.315229",
        "distance":"",
        "tags": [
            "trails",
            "fishing",
            "ruins",
            "water"
        ]
    },
    {
        "id": "sweetwater", 
        "name": "Sweetwater Creek State Park", 
        "snippet": "2,500 acre state park just west of the city. Hiking, camping, and fishing on the menu.",
        "lat":"33.751172",
        "long":"-84.643225",
        "distance":"",
        "tags": [
            "water",
            "trails",
            "camping"
        ]
    },
    {
        "id": "arabia", 
        "name": "Arabia Mountain", 
        "snippet": "A 'mini Stone Mountain' just south of Lithonia, Arabia Mountain offers over 2,550 acres of exposed granite, forests, and wetland.",
        "lat":"33.6640251",
        "long":"-84.1340617",
        "distance":"",
        "tags": [
            "trails",
            "biking"
        ]
    },
    {
        "id": "selena-butler", 
        "name": "Selena S. Butler Park", 
        "snippet": "A 4 acre park in Old 4th Ward with a playground, grills, tennis and basketball courts.",
        "lat":"33.7528323",
        "long":"-84.3765434",
        "distance":"",
        "tags": [
            "playground",
            "grills",
            "tennis",
            "basketball"
        ]
    },
    {
        "id": "esther-peachey-lefevre", 
        "name": "Esther Peachey Lefevre Park", 
        "snippet": "A small corner park in Cabbagetown with a playground.",
        "lat":"33.7513283",
        "long":"-84.3663961",
        "distance":"",
        "tags": [
            "playground"
        ]
    },
    {
        "id": "cabbagetown", 
        "name": "Cabbagetown Park", 
        "snippet": "A medium-sized community park in Cabbagetown known for hosting the annual Chomp and Stomp chilli cook-off.",
        "lat":"33.7492961",
        "long":"-84.3655657",
        "distance":"",
        "tags": [
            "playground"
        ]
    },
    {
        "id": "cleopas-johnson", 
        "name": "Cleopas R. Johnson Park", 
        "snippet": "Medium sized park in between castleberry hill and the AUC. Basketball court, tennis courts and playground.",
        "lat":"33.7485427",
        "long":"-84.4063561",
        "distance":"",
        "tags": [
            "tennis",
            "basketball",
            "playground"
        ]
    },
    {
        "id": "parkway-wabash", 
        "name": "Parkway-Wabash Park", 
        "snippet": "Small corner park in Old 4th Ward with a basketball court and small playground.",
        "lat":"33.7651124",
        "long":"-84.3736749",
        "distance":"",
        "tags": [
            "basketball",
            "playground"
        ]
    },
    {
        "id": "murphey-candler", 
        "name": "Murphey Candler Park", 
        "snippet": "135 acre park in Brookhaven featuring walking trails, a lake, and sports fields.",
        "lat":"33.9115755",
        "long":"-84.3279669",
        "distance":"",
        "tags": [
            "playground",
            "pool",
            "baseball",
            "football",
            "fishing",
            "trails"
        ]
    },
    {
        "id": "parkway-angier", 
        "name": "Parkway-Angier Park", 
        "snippet": "A small corner park in the Old 4th Ward.",
        "lat":"33.7667043",
        "long":"-84.3753037",
        "distance":"",
        "tags": []
    },
    {
        "id": "candler-park", 
        "name": "Candler Park", 
        "snippet": "A 55 acre park on the east-side of Atlanta the includes a 9-hole golf course, pool, playground, and sports amenities.",
        "lat":"33.7658978",
        "long":"-84.3386916",
        "distance":"",
        "tags": [
            "basketball",
            "golf",
            "football",
            "soccer",
            "pool",
            "trails",
            "playground"
        ]
    },
    {
        "id": "zonolite", 
        "name": "Zonolite Park", 
        "snippet": "A 13 acre park near Emory that has a grassy meadow and trails along South Fork Peachtree Creek.",
        "lat":"33.8058078",
        "long":"-84.3459899",
        "distance":"",
        "tags": [
            "trails"
        ]
    },
    {
        "id": "lenox-wildwood", 
        "name": "Lenox-Wildwood Park", 
        "snippet": "A narrow park in Morningside that includes 2 tennis courts alongside a small creek.",
        "lat":"33.8005875",
        "long":"-84.3547836",
        "distance":"",
        "tags": [
            "tennis"
        ]
    }
]
